[
  { "name": "Delhi", "lat": 28.6139, "lon": 77.209 },
  { "name": "Mumbai", "lat": 19.076, "lon": 72.8777 },
  { "name": "Kolkata", "lat": 22.5726, "lon": 88.3639 },
  { "name": "Chennai", "lat": 13.0827, "lon": 80.2707 },
  { "name": "Bengaluru", "lat": 12.9716, "lon": 77.5946 },
  { "name": "Patna", "lat": 25.5941, "lon": 85.1376 }
]
